name,latitude,longitude,address,entree_time,unloading_time,journey2pos_time,delivery_time,journey2unloadingpoint_time,checkout_time,min_travels,max_travels,extra_times
Zona4,14.6209405,-90.51429332883549,Esquina de la Ruta 2 y Via 5 Zona 4,50,330,70,85,205,0,2,3,555
Avia,14.601907608937159,-90.51353437429789,12 Calle 2-25 Zona 10. Segundo Nivel. Kiosco C2-5,120,95,160,370,210,140,1,2,0
Majadas,14.622951729794414,-90.56182177429757,28 Ave. 220-68 Zona 11. Colonia Las Majadas. CC Las Plazas Majadas,150,60,45,105,45,0,1,2,798
Miraflores,14.619935901319291,-90.55451696519319,Miraflores,107,162,92,187,154,47,1,2,451
Oakland,14.598691578862908,-90.50799471958796,Oakland,107,162,92,187,154,47,1,2,451
Cayalá,14.61131310419765,-90.48521062663868,Cayalá,107,162,92,187,154,47,1,2,451
NaranjoMall,14.65126029317456,-90.54278374689316,NaranjoMall,107,162,92,187,154,47,1,2,451
ZonaPortales,14.647107877815769,-90.48252026080128,ZonaPortales,107,162,92,187,154,47,1,2,451